{
  "data": [
    {
      "type": "city",
      "id": "1",
      "attributes": {
        "name": "Москва",
        "lat": 55.753994,
        "lon": 37.622093
      },
      "relationships": {
        "subway_stations": {
          "data": [
            {},
            {},
            {},
            {},
            {},
            {},
            {},
            {},
            {},
            {},
            {},
            {},
            {},
            {},
            {},
            {},
            {},
            {},
            {},
            {},
            {},
            {},
            {},
            {},
            {},
            {},
            {},
            {},
            {},
            {},
            {},
            {},
            {},
            {},
            {},
            {},
            {},
            {},
            {},
            {},
            {},
            {},
            {},
            {},
            {},
            {},
            {},
            {},
            {},
            {},
            {},
            {},
            {},
            {},
            {},
            {},
            {},
            {},
            {},
            {},
            {},
            {},
            {},
            {},
            {},
            {},
            {},
            {},
            {},
            {},
            {},
            {},
            {},
            {},
            {},
            {},
            {},
            {},
            {},
            {},
            {},
            {},
            {},
            {},
            {},
            {},
            {},
            {},
            {},
            {},
            {},
            {},
            {},
            {},
            {},
            {},
            {},
            {},
            {},
            {}
          ]
        }
      }
    },
    {
      "type": "city",
      "id": "2",
      "attributes": {
        "name": "Санкт-Петербург",
        "lat": 59.918172,
        "lon": 30.305578
      },
      "relationships": {
        "subway_stations": {
          "data": [
            {},
            {},
            {},
            {},
            {},
            {},
            {},
            {},
            {},
            {},
            {},
            {},
            {},
            {},
            {},
            {},
            {},
            {},
            {},
            {},
            {},
            {},
            {},
            {},
            {},
            {},
            {},
            {},
            {},
            {},
            {},
            {},
            {},
            {},
            {},
            {},
            {},
            {},
            {},
            {},
            {},
            {},
            {},
            {},
            {},
            {},
            {},
            {},
            {},
            {},
            {},
            {},
            {},
            {},
            {},
            {},
            {},
            {},
            {},
            {},
            {},
            {},
            {},
            {},
            {},
            {},
            {}
          ]
        }
      }
    },
    {
      "type": "city",
      "id": "3",
      "attributes": {
        "name": "Подольск",
        "lat": 55.429767,
        "lon": 37.546088
      },
      "relationships": {
        "subway_stations": {
          "data": []
        }
      }
    },
    {
      "type": "city",
      "id": "4",
      "attributes": {
        "name": "Красногорск",
        "lat": 55.827524,
        "lon": 37.328111
      },
      "relationships": {
        "subway_stations": {
          "data": []
        }
      }
    },
    {
      "type": "city",
      "id": "5",
      "attributes": {
        "name": "Балашиха",
        "lat": 55.794527,
        "lon": 37.936475
      },
      "relationships": {
        "subway_stations": {
          "data": []
        }
      }
    },
    {
      "type": "city",
      "id": "6",
      "attributes": {
        "name": "Одинцово",
        "lat": 55.677066,
        "lon": 37.266528
      },
      "relationships": {
        "subway_stations": {
          "data": []
        }
      }
    },
    {
      "type": "city",
      "id": "7",
      "attributes": {
        "name": "Раменское",
        "lat": 55.562225,
        "lon": 38.229793
      },
      "relationships": {
        "subway_stations": {
          "data": []
        }
      }
    },
    {
      "type": "city",
      "id": "8",
      "attributes": {
        "name": "Пушкино",
        "lat": 56.01353,
        "lon": 37.857719
      },
      "relationships": {
        "subway_stations": {
          "data": []
        }
      }
    },
    {
      "type": "city",
      "id": "9",
      "attributes": {
        "name": "Химки",
        "lat": 55.897079,
        "lon": 37.418836
      },
      "relationships": {
        "subway_stations": {
          "data": []
        }
      }
    },
    {
      "type": "city",
      "id": "10",
      "attributes": {
        "name": "Мытищи",
        "lat": 55.910909,
        "lon": 37.735766
      },
      "relationships": {
        "subway_stations": {
          "data": []
        }
      }
    },
    {
      "type": "city",
      "id": "11",
      "attributes": {
        "name": "Люберцы",
        "lat": 55.679263,
        "lon": 37.892112
      },
      "relationships": {
        "subway_stations": {
          "data": []
        }
      }
    },
    {
      "type": "city",
      "id": "12",
      "attributes": {
        "name": "Королёв",
        "lat": 55.921726,
        "lon": 37.854961
      },
      "relationships": {
        "subway_stations": {
          "data": []
        }
      }
    },
    {
      "type": "city",
      "id": "13",
      "attributes": {
        "name": "Домодедово",
        "lat": 55.440736,
        "lon": 37.753914
      },
      "relationships": {
        "subway_stations": {
          "data": []
        }
      }
    },
    {
      "type": "city",
      "id": "14",
      "attributes": {
        "name": "Долгопрудный",
        "lat": 55.93977,
        "lon": 37.509691
      },
      "relationships": {
        "subway_stations": {
          "data": []
        }
      }
    },
    {
      "type": "city",
      "id": "15",
      "attributes": {
        "name": "Щелково",
        "lat": 55.922094,
        "lon": 37.982494
      },
      "relationships": {
        "subway_stations": {
          "data": []
        }
      }
    },
    {
      "type": "city",
      "id": "16",
      "attributes": {
        "name": "Видное",
        "lat": 55.554945,
        "lon": 37.7093
      },
      "relationships": {
        "subway_stations": {
          "data": []
        }
      }
    },
    {
      "type": "city",
      "id": "17",
      "attributes": {
        "name": "Лобня",
        "lat": 56.016551,
        "lon": 37.478036
      },
      "relationships": {
        "subway_stations": {
          "data": []
        }
      }
    },
    {
      "type": "city",
      "id": "18",
      "attributes": {
        "name": "Павлоский-Посад",
        "lat": 55.777459,
        "lon": 38.65669
      },
      "relationships": {
        "subway_stations": {
          "data": []
        }
      }
    },
    {
      "type": "city",
      "id": "19",
      "attributes": {
        "name": "Чехов",
        "lat": 55.149349,
        "lon": 37.462758
      },
      "relationships": {
        "subway_stations": {
          "data": []
        }
      }
    },
    {
      "type": "city",
      "id": "20",
      "attributes": {
        "name": "Реутов",
        "lat": 55.763166,
        "lon": 37.85273
      },
      "relationships": {
        "subway_stations": {
          "data": []
        }
      }
    },
    {
      "type": "city",
      "id": "21",
      "attributes": {
        "name": "Ногинск",
        "lat": 55.859972,
        "lon": 38.444203
      },
      "relationships": {
        "subway_stations": {
          "data": []
        }
      }
    },
    {
      "type": "city",
      "id": "22",
      "attributes": {
        "name": "Электросталь",
        "lat": 55.787783,
        "lon": 38.451905
      },
      "relationships": {
        "subway_stations": {
          "data": []
        }
      }
    },
    {
      "type": "city",
      "id": "23",
      "attributes": {
        "name": "Дзержинский",
        "lat": 55.629396,
        "lon": 37.845451
      },
      "relationships": {
        "subway_stations": {
          "data": []
        }
      }
    },
    {
      "type": "city",
      "id": "24",
      "attributes": {
        "name": "Ивантеевка",
        "lat": 55.971283,
        "lon": 37.918198
      },
      "relationships": {
        "subway_stations": {
          "data": []
        }
      }
    },
    {
      "type": "city",
      "id": "25",
      "attributes": {
        "name": "Железнодорожный",
        "lat": 55.388565,
        "lon": 37.539549
      },
      "relationships": {
        "subway_stations": {
          "data": []
        }
      }
    },
    {
      "type": "city",
      "id": "26",
      "attributes": {
        "name": "Троицк",
        "lat": 55.487304,
        "lon": 37.307412
      },
      "relationships": {
        "subway_stations": {
          "data": []
        }
      }
    },
    {
      "type": "city",
      "id": "27",
      "attributes": {
        "name": "Московский",
        "lat": 55.600682,
        "lon": 37.356172
      },
      "relationships": {
        "subway_stations": {
          "data": []
        }
      }
    },
    {
      "type": "city",
      "id": "28",
      "attributes": {
        "name": "Щербинка",
        "lat": 55.506642,
        "lon": 37.552227
      },
      "relationships": {
        "subway_stations": {
          "data": []
        }
      }
    }
  ]
}
